[
	{
		"ProjectName": "Sri Raghavendra Swamy Matha",
		"State": "Andhra Pradesh",
		"Class_Name": "Matha",
		"City": "Mantralayam",
		"Area": "Sri Raghavendra Swamy Matha",
		"Shoot Date": "",
		"TotalPointers": "",
		"WebTour": "",
		"GoogleStreetView": "",
		"GoogleLocation": "https://maps.app.goo.gl/rwJdnJT5RR9r63577",
		"Latitude": "15.943042760100045",
		"Longitude": "77.42246664836202",
		"imgSrc": "RayaraBrindavana"
	},
	{
		"ProjectName": "Sri Raghavendra Swamy Matha",
		"State": "Andhra Pradesh",
		"Class_Name": "AbhayaAnjaneyaDevastana",
		"City": "Mantralayam",
		"Area": "Abhaya Anjaneya Devasthana",
		"Shoot Date": "",
		"TotalPointers": "",
		"WebTour": "https://www.turiya.co/360/Mantralaya/Anjaneya/",
		"GoogleStreetView": "",
		"GoogleLocation": "https://maps.app.goo.gl/aKfkvEFF7giqxjXt9",
		"Latitude": "15.94422245180496",
		"Longitude": "77.42513224884999",
		"imgSrc": "Anjaneya"
	},
	{
		"ProjectName": "Sri Raghavendra Swamy Matha",
		"State": "Andhra Pradesh",
		"Class_Name": "SriVenkateshwaraSwamySannidi",
		"City": "Mantralayam",
		"Area": "Sri Venkateshwara Swamy Sannidi",
		"Shoot Date": "",
		"TotalPointers": "",
		"WebTour": "https://www.turiya.co/360/Mantralaya/SriVenkateshwara/",
		"GoogleStreetView": "",
		"GoogleLocation": "https://maps.app.goo.gl/9c6fPpqBNALZPWBj8",
		"Latitude": "15.944436648696364",
		"Longitude": "77.42451401077749",
		"imgSrc": "SriVenkateshwara"
	},
	{
		"ProjectName": "Sri Raghavendra Swamy Matha",
		"State": "Andhra Pradesh",
		"Class_Name": "SriGurusarvabhoumaSamskruthaVidyapeetha",
		"City": "Mantralayam",
		"Area": "Sri Gurusarvabhouma Samskrutha Vidyapeetha",
		"Shoot Date": "",
		"TotalPointers": "",
		"WebTour": "https://www.turiya.co/360/Mantralaya/SamskruthaVidyapeetha/",
		"GoogleStreetView": "",
		"GoogleLocation": "https://maps.app.goo.gl/Uvrp4jMKDd1cmNfj8",
		"Latitude": "15.94302615622567",
		"Longitude": "77.42511875444313",
		"imgSrc": "SamskruthaVidyapeetha"
	},
	{
		"ProjectName": "Sri Raghavendra Swamy Matha",
		"State": "Andhra Pradesh",
		"Class_Name": "SriParimalaEducationSociety",
		"City": "Mantralayam",
		"Area": "Sri Parimala Education Society",
		"Shoot Date": "",
		"TotalPointers": "",
		"WebTour": "https://www.turiya.co/360/Mantralaya/School/",
		"GoogleStreetView": "",
		"GoogleLocation": "https://maps.app.goo.gl/er8FrV7gXVnv4ND56",
		"Latitude": "15.937944316523485",
		"Longitude": "77.42083208032345",
		"imgSrc": "School"
	},
	{
		"ProjectName": "Sri Raghavendra Swamy Matha",
		"State": "Andhra Pradesh",
		"Class_Name": "SriHaridasaDarshiniMuseum",
		"City": "Mantralayam",
		"Area": "Sri Haridasa Darshini Museum",
		"Shoot Date": "",
		"TotalPointers": "",
		"WebTour": "https://www.turiya.co/360/Mantralaya/Museum/",
		"GoogleStreetView": "",
		"GoogleLocation": "https://maps.app.goo.gl/KqEhK6ga51zQBSEbA",
		"Latitude": "15.94307931048104",
		"Longitude": "77.42226093558223",
		"imgSrc": "Museum"
	},
	{
		"ProjectName": "Sri Raghavendra Swamy Matha",
		"State": "Andhra Pradesh",
		"Class_Name": "KamadhenuGoshala",
		"City": "Mantralayam",
		"Area": "Kamadhenu Goshala",
		"Shoot Date": "",
		"TotalPointers": "",
		"WebTour": "https://www.turiya.co/360/Mantralaya/Goshala/",
		"GoogleStreetView": "",
		"GoogleLocation": "https://maps.app.goo.gl/SUeS8GXjp837gtMK6",
		"Latitude": "15.931930637460738",
		"Longitude": "77.40654133450148",
		"imgSrc": "Goshala"
	},
	{
		"ProjectName": "Sri Raghavendra Swamy Matha",
		"State": "Andhra Pradesh",
		"Class_Name": "SriSujayeendraArogyashala",
		"City": "Mantralayam",
		"Area": "Sri Sujayeendra Arogyashala",
		"Shoot Date": "",
		"TotalPointers": "",
		"WebTour": "https://www.turiya.co/360/Mantralaya/Hospital/",
		"GoogleStreetView": "",
		"GoogleLocation": "https://maps.app.goo.gl/gUVLvhp8PfRAFsw68",
		"Latitude": "15.94067184891102",
		"Longitude": "77.42115851164475",
		"imgSrc": "Hospital"
	},
	{
		"ProjectName": "Sri Raghavendra Swamy Matha",
		"State": "Andhra Pradesh",
		"Class_Name": "Accommodations",
		"City": "Mantralayam",
		"Area": "Accommodations",
		"Shoot Date": "",
		"TotalPointers": "",
		"WebTour": "https://www.turiya.co/360/Mantralaya/Accommodation/",
		"GoogleStreetView": "",
		"GoogleLocation": "https://maps.app.goo.gl/L92DSrEMQCVc8n4j9",
		"Latitude": "15.941670160626028",
		"Longitude": "77.42650858048667",
		"imgSrc": "Accommodation"
	}
]
